Abbrev,Lat,Long,Name,Depressed,Average
CT,41.5187835,-72.757507,Connecticut,450,6-7
DE,39.145251,-75.4189206,Delaware,420,6-7
ME,45.2185133,-69.0148656,Maine,700,11+
MA,42.0629398,-71.718067,Massachusetts,406,6-7
NH,44.0012306,-71.5799231,New Hampshire,300,3-4
NJ,40.1430058,-74.7311156,New Jersey,431,6-7
NY,42.7056258,-74.97968,New York,347,4-5
PA,40.9945928,-77.6046984,Pennsylvania,312,3-4
RI,41.5827282,-71.5064508,Rhode Island,650,10-11
VT,43.8717545,-72.4477828,Vermont,0,NA